{"version": 0.6, "generator": "Overpass API 0.7.62.11 87bfad18", "osm3s": {"timestamp_osm_base": "2026-04-15T23:03:00Z", "copyright": "The data included in this document is from www.openstreetmap.org. The data is made available under ODbL."}, "elements": [{"type": "node", "id": 356529348, "lat": 38.2907707, "lon": -79.9309555, "tags": {"communication:radio": "yes", "ele": "808", "gnis:feature_id": "1559708", "man_made": "mast", "operator": "WVMR-AM (Frost)", "tower:construction": "guyed_lattice", "tower:type": "communication"}}, {"type": "node", "id": 6136533223, "lat": 38.4114061, "lon": -79.5797978}, {"type": "node", "id": 6136533225, "lat": 38.4110687, "lon": -79.5788864}, {"type": "node", "id": 6136533231, "lat": 38.4108252, "lon": -79.5782425}, {"type": "node", "id": 6136541571, "lat": 38.4103163, "lon": -79.5785407}, {"type": "node", "id": 6136541572, "lat": 38.4113546, "lon": -79.5798255}, {"type": "node", "id": 6136541573, "lat": 38.4110299, "lon": -79.5789323}, {"type": "node", "id": 6136541574, "lat": 38.4105686, "lon": -79.5791576}, {"type": "node", "id": 9883284055, "lat": 38.2235053, "lon": -79.814676, "tags": {"man_made": "tower", "tower:type": "communication"}}, {"type": "node", "id": 9888399548, "lat": 38.164401, "lon": -79.705494, "tags": {"man_made": "tower", "tower:construction": "lattice", "tower:type": "communication"}}, {"type": "node", "id": 9936360749, "lat": 38.1862002, "lon": -79.4106928, "tags": {"addr:city": "Deerfield", "addr:county": "Augusta", "addr:housenumber": "111", "addr:postcode": "24432", "addr:state": "VA", "addr:street": "Marble Valley Road", "man_made": "mast", "tower:construction": "freestanding", "tower:type": "communication"}}, {"type": "node", "id": 11964449193, "lat": 38.3392917, "lon": -79.5171264, "tags": {"addr:city": "McDowell", "addr:housenumber": "159", "addr:postcode": "24458", "addr:state": "VA", "addr:street": "Davis Run Road", "man_made": "mast", "tower:type": "communication"}}, {"type": "node", "id": 12051773165, "lat": 38.428069, "lon": -79.5963153, "tags": {"addr:city": "Monterey", "addr:housenumber": "2155", "addr:postcode": "24465", "addr:state": "VA", "addr:street": "Mountain Turnpike", "communication:mobile_phone": "yes", "man_made": "mast", "tower:construction": "lattice", "tower:type": "communication"}}, {"type": "node", "id": 12051773166, "lat": 38.4276008, "lon": -79.5972477, "tags": {"man_made": "mast", "tower:construction": "guyed_lattice", "tower:type": "communication"}}, {"type": "way", "id": 654885930, "nodes": [6136541571, 6136533231, 6136533225, 6136533223, 6136541572, 6136541573, 6136541574, 6136541571], "tags": {"landuse": "commercial", "man_made": "tower", "name": "Allegheny Mountain Radio", "operator": "Pocahontas Communications", "tower:type": "communication"}}]}